[
  {
    "id": 1,
    "name": "AED @ 市中心医院站站台（10号线）",
    "address": "市中心医院地铁站十号线站台",
    "coordinates": [
      "34.746931",
      "113.613692"
    ],
    "images_url": []
  },
  {
    "id": 2,
    "name": "AED @ 碧沙岗站站厅D出口（1号线）",
    "address": "碧沙岗公园地铁站D出口",
    "coordinates": [
      "34.75128",
      "113.630255"
    ],
    "images_url": []
  },
  {
    "id": 3,
    "name": "AED @ 郑州中原万达广场",
    "address": "河南省郑州市中原区中原中路171号",
    "coordinates": [
      "34.746421",
      "113.601543"
    ],
    "images_url": []
  },
  {
    "id": 4,
    "name": "AED @ 二砂站站台（10号线）",
    "address": "二砂地铁站站台",
    "coordinates": [
      "34.746075",
      "113.643821"
    ],
    "images_url": []
  },
  {
    "id": 5,
    "name": "AED @ 秦岭路站站台B端（1号线）",
    "address": "1号线秦岭路站站台B端",
    "coordinates": [
      "34.756676",
      "113.60333"
    ],
    "images_url": []
  },
  {
    "id": 6,
    "name": "AED @ 西流湖公园南站站台（10号线）",
    "address": "西流湖公园南站站台",
    "coordinates": [
      "34.74745",
      "113.583419"
    ],
    "images_url": []
  },
  {
    "id": 7,
    "name": "AED @ 绿城广场站站台上行处（1号线）",
    "address": "站台上行处",
    "coordinates": [
      "34.747477",
      "113.633434"
    ],
    "images_url": []
  },
  {
    "id": 8,
    "name": "AED @ 月季公园站站厅自动售票机旁（5号线）",
    "address": "河南省郑州市中原区金水西路71-1号",
    "coordinates": [
      "34.767187",
      "113.616594"
    ],
    "images_url": []
  },
  {
    "id": 9,
    "name": "AED @ 绿城广场站站厅（10号线）",
    "address": "地铁十号线绿城广场站厅",
    "coordinates": [
      "34.747477",
      "113.633434"
    ],
    "images_url": []
  },
  {
    "id": 10,
    "name": "AED @ 医学院站站厅D出口旁（1号线）",
    "address": "河南省郑州市二七区中原东路106号",
    "coordinates": [
      "34.746887",
      "113.641168"
    ],
    "images_url": []
  },
  {
    "id": 11,
    "name": "AED @ 医学院站站台A端（1号线）",
    "address": "医学院地铁站1号线站台A端",
    "coordinates": [
      "34.74755",
      "113.64266"
    ],
    "images_url": []
  },
  {
    "id": 12,
    "name": "AED @ 市骨科医院站站台机电材料间旁(7号线)",
    "address": "站台机电材料间旁",
    "coordinates": [
      "34.7364",
      "113.64401"
    ],
    "images_url": []
  },
  {
    "id": 13,
    "name": "AED @ 嵩淮站站厅BC口安检机前（6号线）",
    "address": "站厅BC口安检机前",
    "coordinates": [
      "34.72887",
      "113.62835"
    ],
    "images_url": []
  },
  {
    "id": 14,
    "name": "AED @ 桐淮站站厅A端柱子旁（5号线）",
    "address": "桐淮地铁站站厅A端柱子旁",
    "coordinates": [
      "34.728771",
      "113.613578"
    ],
    "images_url": []
  },
  {
    "id": 15,
    "name": "AED @ 卧龙岗站站厅车控室前（6号线）",
    "address": "河南省郑州市中原区秦岭路238-1号",
    "coordinates": [
      "34.728287",
      "113.60302"
    ],
    "images_url": []
  },
  {
    "id": 16,
    "name": "AED @ 李江沟站站厅车控室旁（6号线）",
    "address": "河南省郑州市中原区淮河西路112-20号",
    "coordinates": [
      "34.730248",
      "113.590688"
    ],
    "images_url": []
  },
  {
    "id": 17,
    "name": "AED @ 市第二人民医院站站台中部（5号线）",
    "address": "站台中部",
    "coordinates": [
      "34.720726",
      "113.64299"
    ],
    "images_url": []
  }
]